{
  "type": "FeatureCollection",
  "features": [
    {
      "type": "Feature",
      "geometry": {
        "type": "Point",
        "coordinates": [
          57.5260494,
          -20.3190425
        ]
      },
      "properties": {
        "id": 223529938,
        "name": "Carnegie Library",
        "amenity": "library"
      }
    },
    {
      "type": "Feature",
      "geometry": {
        "type": "Point",
        "coordinates": [
          57.4970264,
          -20.2351575
        ]
      },
      "properties": {
        "id": 470704952,
        "name": "Library",
        "amenity": "library"
      }
    },
    {
      "type": "Feature",
      "geometry": {
        "type": "Point",
        "coordinates": [
          57.5837059,
          -20.0147507
        ]
      },
      "properties": {
        "id": 495848217,
        "name": "Grand baie Library",
        "amenity": "library"
      }
    },
    {
      "type": "Feature",
      "geometry": {
        "type": "Point",
        "coordinates": [
          57.4817302,
          -20.2829379
        ]
      },
      "properties": {
        "id": 495859071,
        "name": "Unknown",
        "amenity": "library"
      }
    },
    {
      "type": "Feature",
      "geometry": {
        "type": "Point",
        "coordinates": [
          57.6439089,
          -20.0342257
        ]
      },
      "properties": {
        "id": 586914250,
        "name": "public library",
        "amenity": "library"
      }
    }
  ]
}